Latitude,Longitude,Name,Times recommended,Recommended by,Rating,Reviews,Category,Google category,Notes,Website
43.2935522,5.382698599999999,Limmat,7,Cara + Chloé + Group list + List 1 + Riya + Tatiana + Tom,4.7,461,Dinner,Restaurant,Famous small-plates spot on the long steps near the main square. BOOK AHEAD. · DINNER,http://limmatmarseille.com/
43.3001322,5.369594699999999,Ripaille (Rapaille),5,Chloé + Group list + List 1 + Riya + Tatiana,4.3,295,Wine Bar,Restaurant,Wine bar.,https://instagram.com/ripaille_marseille
43.217831,5.34585,Tuba Club,4,Cara + Chloé + List 1 + Riya,4.3,2233,Dinner,Restaurant,Lunch or dinner by the sea (spenny). · DINNER,https://tuba-club.com/
43.2839533,5.3712377,Notre-Dame de la Garde,4,Chloé + List 1 + Riya + Tatiana,4.8,50314,Other,Church,,https://basiliquenotredamedelagarde.com/
43.2994738,5.370580899999999,Le Vin sur la Main,4,Chloé + Group list + Riya + Tatiana,4.8,191,Dinner,Bar,"Dinner. · Book ahead via IG/in person. Small, living-room DIY vibe, everyone served same time · Good natural wine + guest chefs",https://www.instagram.com/le_vin_sur_la_main/
43.2930637,5.3729146,Coquille,4,Chloé + Group list + Laurence's Local + Riya,4.7,1202,Dinner,Restaurant,"Best seafood. · Seafood by the port, best to book, waited an hour, worth it. Went back twice for the mussels",
43.283193,5.3745099,Figure,4,Cara + Chloé + Group list + Riya,4.2,241,Wine Bar,Restaurant,Wine bar / evening restaurant — 'Figure or Ivresse'. · DINNER + DRINKS,
43.2804915,5.3502496,Plage de Maldormé,3,List 1 + Tatiana + Tom,4.5,629,Beach / Swim,Scenic spot,Stunning swimming spot at the edge of the city centre — worth the bus ride. Where all the youts hang.,https://sites.google.com/site/ligondes/classeur/landscape/mediterranee/marseille/maldorme
43.2844392,5.3496025,Malmousque (swim spot),3,Chloé + List 1 + Tatiana,4.8,150,Other,Hiking area,,https://sites.google.com/site/ligondes/
43.2958061,5.3784182,La Mercerie,3,Chloé + List 1 + Riya,4.5,1361,Dinner,Restaurant,,https://www.lamerceriemarseille.com/
43.2850522,5.3499823,Piscine maritime des Auffes,3,Chloé + List 1 + Tatiana,4.7,56,Beach / Swim,Outdoor swimming pool,,
43.2810545,5.3516039,Boujou,3,Chloé + Group list + List 1,4.6,832,Coffee / Lunch,Cafe,Coffee near the beach.,https://boujou.coffee/
43.29139600000001,5.366935,Café de l'Abbaye,3,Cara + Chloé + List 1,4.3,567,Wine Bar,Restaurant,Lovely sunset drink spot.,https://www.facebook.com/lecafedelabbaye/
43.2957883,5.3785234,Petrin Couchette,3,Chloé + Group list + List 1,4.6,771,Coffee / Lunch,Bakery,Breakfast.,http://www.petrincouchette.com/
43.2900481,5.3661173,L'écaillerie,3,Chloé + List 1 + Riya,4.6,660,Dinner,Restaurant,,https://www.lecailleriemarseille.fr/
43.2943428,5.3839966,Livingston,3,Chloé + List 1 + Riya,4.4,1041,Dinner,Restaurant,,http://www.livingstonmarseille.com/
43.2951292,5.3824835,Tarlata Café,3,Chloé + Group list + List 1,4.8,157,Coffee / Lunch,Bar,Breakfast / pastries. · COFFEE,https://www.privateaser.com/lieu/63053-tarlata-cafe
43.2943351,5.3830643,Cours Julien / La Plaine,3,Chloé + Georgie + Tatiana,4.5,587,Town / Area,Route,Squares packed with bars — go-to for a night out.,
43.289493,5.366532299999999,La Relève,3,Cara + Chloé + Group list,4.1,508,Dinner,Restaurant,"Small plates on the street — delish. · small plates, outdoor seating",https://larelevemarseille.fr/
43.2948119,5.3844927,Chez Gilda,3,Chloé + Riya + Tatiana,4.7,209,Dinner,Restaurant,Typical seafood (cash only); get everything; try Panisses with Aioli,https://www.instagram.com/chez.gilda/
43.29296,5.378180899999999,À Moro,3,Chloé + Riya + Tatiana,4.6,221,Dinner,Restaurant,,
43.2912284,5.386981899999999,Mercato,3,Chloé + Group list + Riya,4.7,93,Wine Bar,Bar,Wine bar — close to Livingston.,https://instagram.com/mercato_winesucker?igshid=MzRlODBiNWFlZA==
43.297021,5.3904869,La Brûlerie MÖKA,3,Chloé + Riya + Tatiana,4.7,349,Coffee / Lunch,Cafe,Nice coffee,http://brulerie-moka.com/
43.2812894,5.351706399999999,La Meulerie Malmousque,3,Chloé + Riya + Tatiana,4.8,199,Shop,Cheese shop,"cheese, raclette, sandwiches, toasties · Cheese toasties for beach",http://www.lameulerie.com/
43.310172,5.390569300000001,Friche la Belle de Mai,3,Chloé + Riya + Tatiana,4.4,6229,Wine Bar,Bar,BARBICAN · Check the programme,http://www.lafriche.org/
43.3025647,5.3900492,Pollux,2,Group list + List 1,4.7,236,Coffee / Lunch,Cafe,Coffee / lunch.,https://www.instagram.com/cafe.pollux/
43.2929673,5.3840121,Bistronomie Yasmine,2,List 1 + Tatiana,4.6,1371,Dinner,Restaurant,,http://www.bistronomie-yasmine.fr/
43.2948254,5.3841684,Planète Livre Marseille la Passerelle,2,List 1 + Riya,4.3,190,Wine Bar,Bar,V good wine bar,
43.3003745,5.3869868,ECLECTIQUE MARSEILLE,2,List 1 + Tatiana,4.4,326,Coffee / Lunch,Bakery,,
43.2732518,5.3620611,Prophet's Beach,2,Chloé + List 1,4,2195,Beach / Swim,Natural Feature,,
43.2911243,5.3562413,Dérive Marseille,2,List 1 + Riya,4.5,75,Wine Bar,Bar,,https://www.instagram.com/derive_marseille/
43.2966941,5.3610825,MUCEM,2,List 1 + Tatiana,4.4,24242,Culture,Museum,,https://www.mucem.org/
43.216667,5.433333,Massif des Calanques,2,Chloé + List 1,4.7,1029,Beach / Swim,Natural Feature,,
43.2935648,5.3840507,Lilou Vintage,2,List 1 + Tatiana,4.2,42,Shop,Clothing Store,,http://www.facebook.com/pages/LILOU-VINTAGE/113818315314824
43.2935788,5.384487699999999,Mélanine Vintage Shop,2,List 1 + Tatiana,4.4,137,Shop,Clothing Store,Good curated vintage,
43.2947971,5.3826646,HUMANA,2,List 1 + Riya,4.2,63,Shop,Clothing Store,,https://humana-france.org/
43.2930536,5.385252299999999,PAIN PAN,2,Chloé + Riya,4.3,729,Coffee / Lunch,Bakery,,https://www.facebook.com/BoulangeriePAINPAN/
43.28301270000001,5.350228,Cécile Food Club Malmousque,2,Chloé + Riya,4.1,335,Dinner,Restaurant,,https://www.ceciledeli.com/
43.2956242,5.3789308,Chez Yassine,2,Cara + Chloé,4.3,2370,Coffee / Lunch,Restaurant,Lunch in Noailles — pure Marseille experience.,https://www.chezyassine.com/
43.2104799,5.455583,Calanque de Sugiton,2,Chloé + Tatiana,4.8,556,Beach / Swim,Natural Feature,,
43.2817546,5.351046800000001,Mademoiselle Wine,2,Chloé + Group list,4.2,53,Wine Bar,Liquor Store,Wine shop.,https://www.instagram.com/mademoisellewinemarseille/?hl=fr
43.3000415,5.3699657,Chez Etienne,2,Cara + Chloé,4.3,1954,Dinner,Meal Takeaway,An institution (Appaz) — worth going.,
43.301936,5.3932087,Ivresse,2,Cara + Chloé,4.3,84,Wine Bar,Bar,Nice evening bar / restaurant.,https://ivresselacave.com/
43.288055,5.3885384,Ferments Bakery,2,Chloé + Riya,4.5,301,Coffee / Lunch,Bakery,Delicious croissants,https://boutique.fermentsbakery.fr/
43.28182,5.350995699999999,Rôtisserie Montaigne,2,Chloé + Riya,4.5,281,Coffee / Lunch,Meal Delivery,"Half chicken + baguette + sandwich bits, take to beach",https://rotisseriemontaigne.com/
43.2938075,5.3774274,Ciel Rooftop,2,Chloé + Georgie,4.4,6987,Nightlife,Restaurant,Bar. · DINNER + LUNCH + DRINKS,https://www.ciel-rooftop.com/
43.2896583,5.384055699999999,BONNIES,2,Chloé + Riya,4.8,82,Wine Bar,Bar,DRINKS + DINNER + POOL,
43.213992,5.338045999999999,Baie des Singes,2,Cara + Chloé,3.7,2402,Beach / Swim,Restaurant,Swim spot — walk over from Chez Paul. · DAY TRIP SWIMMING LUNCH,https://www.la-baie-des-singes.fr/
43.2933855,5.3851416,Pizza Enervée,2,Riya + Tatiana,4.7,266,Dinner,Restaurant,Best pizza slices (cash only),https://pizza-enervee.eatbu.com/?lang=fr
43.2997752,5.3785375,Sur le Pouce,2,Riya + Tatiana,4.4,1890,Dinner,Restaurant,"Yummy, cheap, nice people",
43.3000189,5.3684338,La Cesta de Lucia,2,Cara + Tatiana,4.9,172,Dinner,Bar,"Small menu, run by a really nice man.",
43.2950008,5.3796086,Noailles,2,Cara + Group list,,,Town / Area,Neighborhood,Pure Marseille experience; food ~10 mins from the pier.,
43.30183479999999,5.3906547,Îlot Central,1,List 1,4.4,83,Dinner,Restaurant,,https://www.privateaser.com/lieu/56769-ilot-central
43.2888747,5.3801936,Jacqueline,1,List 1,4.6,75,Wine Bar,Bar,,
43.2961331,5.391046100000001,Chez Petit Jean,1,List 1,4.8,136,Dinner,Restaurant,,https://www.instagram.com/chez_petijean/
43.3010867,5.3878902,Longchamp Palace,1,List 1,4.4,1637,Wine Bar,Bar,,
43.293228,5.3844873,Fan2 friperie vintage,1,List 1,4.9,232,Shop,Clothing Store,,https://www.instagram.com/__fan2__?igsh=MWZxYXV5anBtZW5xeA==
43.2947981,5.380076499999999,Yuzu Record Bar,1,List 1,4.6,128,Dinner,Restaurant,,https://www.yuzu-record-bar.com/
43.2894191,5.368589099999999,SEPIA,1,List 1,4.5,1688,Wine Bar,Bar,,https://www.restaurant-sepia.fr/
43.2814397,5.3516585,Poissonnerie Kennedy,1,List 1,4.3,412,Dinner,Restaurant,,https://www.poissonneriekennedy.com/
43.29356180000001,5.3790122,SAISON,1,List 1,5,200,Shop,Clothing Store,,http://www.saisonshop.fr/
43.2974206,5.3721747,Maison Mere,1,List 1,4,151,Shop,Clothing Store,,http://maisonmere.eu/
43.3022145,5.3904216,Les Rigoles,1,List 1,4.5,119,Dinner,Restaurant,,http://instagram.com/lesrigoles.marseille/
43.2876108,5.3790486,Zaÿ Zaÿ,1,List 1,4.8,867,Wine Bar,Bar,,https://www.instagram.com/zayzay.restaurant/
43.28160099999999,5.3514,Pigment,1,List 1,4.6,164,Wine Bar,Bar,,https://www.instagram.com/pigment.marseille
43.2939021,5.388819199999999,Josie café,1,List 1,4.9,118,Coffee / Lunch,Cafe,,https://www.josiecoffee.fr/
43.2973468,5.3834434,Zitoune,1,List 1,4.9,72,Coffee / Lunch,Cafe,,https://www.instagram.com/cafe_zitoune/
43.2399839,5.3669869,Campagne Pastré,1,List 1,4.5,318,Beach / Swim,Park,,
43.228509,5.351584,Saména,1,List 1,,,Other,Neighborhood,,
43.2961486,5.378633400000001,Maison Empereur,1,List 1,4.7,2579,Shop,Furniture Store,,https://empereur.fr/
43.2847928,5.3751599,Au Contraire Pâtisserie,1,List 1,4.9,247,Coffee / Lunch,Bakery,,http://www.aucontrairepatisserie.com/
43.28301270000001,5.350228,LOULOU MONSIEUR GLACE Malmousque,1,List 1,4.4,250,Other,Ice Cream,,https://louloumonsieurglace.com/
43.29701499999999,5.3686023,Glacier Vanille Noire,1,List 1,4.4,1992,Other,Ice Cream,,http://www.vanillenoire.com/
43.293381,5.3738487,Tigermilk Marseille,1,List 1,4.9,6587,Dinner,Restaurant,,https://tigermilkrestaurants.com/fr/restaurants/marseille/
43.287266,5.359915,Bercail,1,List 1,4.8,83,Dinner,Restaurant,,https://www.instagram.com/bercail.marseille/?next=%2F
43.2928675,5.3761925,TAQUIN MARSEILLE,1,List 1,4.6,360,Dinner,Restaurant,,
43.2948818,5.3843387,Le Comptoir de Becca,1,List 1,4.9,425,Dinner,Restaurant,,https://lecomptoirdebecca.eatbu.com/?lang=fr
43.2944098,5.3837717,La Ola,1,List 1,4.8,252,Dinner,Restaurant,,https://bookings.zenchef.com/results?rid=362036&pid=1001
43.2943568,5.3768536,Café La Fiancée,1,List 1,4.7,3274,Dinner,Restaurant,,http://www.cafelafiancee.com/
43.293499,5.3751768,Deep,1,List 1,4.6,1074,Coffee / Lunch,Cafe,,http://www.deep.coffee/
43.2854114,5.377159199999999,Succulentes Cafe,1,List 1,4.8,152,Coffee / Lunch,Bakery,,http://www.succulentescafe.com/
43.2992991,5.368024,Dutch café,1,List 1,4.8,351,Wine Bar,Bar,,
43.2897156,5.379655899999999,Oh Faon !,1,List 1,4.8,1225,Coffee / Lunch,Bakery,,http://www.ohfaon.com/
43.30604020000001,5.364757,Copper Branch Marseille,1,List 1,4.4,60,Dinner,Restaurant,,https://copperbranch.fr/
43.30426689999999,5.3946029,Palais Longchamp,1,List 1,4.6,20092,Culture,Museum,,https://www.marseille.fr/culture/patrimoine-culturel/le-palais-longchamp
43.2906568,5.3554392,Plage des Catalans,1,List 1,4,4629,Beach / Swim,Natural Feature,,
43.287677,5.3895427,MV SMARTSHOP,1,List 1,4.9,86,Shop,Clothing Store,,http://marseillevintage.com/
43.2928052,5.3791674,digger.club vintage,1,List 1,4.8,71,Shop,Clothing Store,,
43.2912611,5.3841586,COMMON,1,List 1,4.9,30,Shop,Clothing Store,,http://instagram.com/common_marseille
43.2921808,5.3852924,Out Of Space Vintage Shop,1,List 1,4.9,52,Shop,Clothing Store,,https://www.facebook.com/outofspaceshop/
43.294774,5.384932,Coco vintage,1,List 1,4.8,67,Shop,Clothing Store,,https://www.instagram.com/cocovintage_marseille/?hl=fr
43.2925396,5.385264299999999,Kitsh Vintage,1,List 1,5,70,Shop,Clothing Store,,https://www.instagram.com/kitsh.vintage/
43.2905868,5.3733714,Ourea,1,Chloé,4.9,824,Dinner,Restaurant,,http://www.ourea-restaurant.com/
43.29440870000001,5.3757453,Bouillabaisse TURFU,1,Chloé,4.3,222,Dinner,Restaurant,classic marseille dish,
43.29208939999999,5.3842978,Matza,1,Chloé,4.7,1344,Wine Bar,Bar,book in advance,https://www.instagram.com/matza.restaurant/
43.2138803,5.5351452,Port de Cassis,1,Chloé,4.6,14963,Beach / Swim,Marina,,http://www.portdecassis.com/
43.2848597,5.3859685,La Fontaine,1,Chloé,4.5,1280,Dinner,Restaurant,,
43.27650269999999,5.3942619,Belle de Mars,1,Chloé,4.9,302,Dinner,Restaurant,High end,https://belledemars.fr/
43.2913946,5.3848592,café la muse,1,Chloé,4.3,692,Wine Bar,Bar,"Vibey day+night, laptop-friendly",http://www.cafelamuse.fr/
43.2912256,5.3812579,Vin Cult,1,Chloé,4.9,55,Shop,Clothing Store,,
43.2978576,5.371586499999999,Les Lumières,1,Chloé,4.8,484,Wine Bar,Bar,,https://reservation.laddition.com/booking/les-lumieres
43.2979363,5.3712555,TETRO,1,Chloé,4.5,147,Dinner,Restaurant,"newish, chef great, menu changes",https://www.instagram.com/tetro13002/
43.29568099999999,5.382,Super Cools La Cave,1,Chloé,4.8,40,Shop,Liquor Store,,https://supercools.hiboutik.com/shop/?utm_source=gmb
43.2130492,5.5313148,Plage du Bestouan,1,Chloé,4.5,2615,Other,Tourist Attraction,,
43.2919501,5.367108,La Passarelle Marseille,1,Chloé,4.3,1304,Wine Bar,Bar,restaurant jardin pétanque bar,https://www.thefork.fr/restaurant/la-passarelle-r840839
43.2844173,5.3587561,Chez Lucienne,1,Chloé,4.6,79,Shop,Cheese shop,,
43.2916975,5.3747957,Café Lauca « La Boutchica »,1,Chloé,4.8,404,Coffee / Lunch,Cafe,,https://www.cafelauca.com/
43.2944966,5.384601099999999,La Traverse de Balkis,1,Chloé,4.9,270,Wine Bar,Bar,,http://latraversedebalkis.com/
43.2853256,5.3510807,Vallon des Auffes,1,Chloé,4.6,894,Other,"Pretty spot, good for walks and drinks",SWIM,
43.2927407,5.3853531,Razzia,1,Chloé,4.9,278,Coffee / Lunch,Cafe,,https://www.instagram.com/razzia_marseille/
43.2132075,5.5313949,Same Same Beach,1,Chloé,3.1,443,Wine Bar,Bar,,https://menu.eazee-link.com/?o=q&id=UOVG34OYB9
43.2827511,5.386139300000001,dynamo Marseille,1,Chloé,4.7,90,Other,,,https://dynamo-marseille.com/
43.2961191,5.3862458,MON CAFÉ,1,Chloé,4.3,88,Wine Bar,Bar,,
43.2938118,5.378476099999999,Kin,1,Chloé,4.9,352,Dinner,Restaurant,,http://www.kin-restaurant.com/
43.28450600000001,5.358378999999999,Dailycat,1,Chloé,4.6,167,Dinner,Restaurant,,https://www.facebook.com/dailycatmarseille/
43.2959873,5.3852733,Restaurant/Marché Palestine de Gaza,1,Chloé,5,62,Dinner,Restaurant,,
43.220783,5.628411,Camping Ceyreste Cassis La Ciotat,1,Chloé,4.3,1244,Other,Campground,,https://www.campingceyreste.com/
43.2928675,5.3761925,IPPON MARSEILLE,1,Chloé,4.6,360,Dinner,Restaurant,,
43.29141850000001,5.357327199999999,Uma Holistic Club Coffee & Sport,1,Chloé,4.8,148,Coffee / Lunch,Cafe,,https://umamarseille.fr/
43.2922819,5.3849754,House of Pain Boulangerie bio,1,Chloé,4.2,328,Coffee / Lunch,Bakery,,
43.2935199,5.3841211,Merguez Fripe Marseille,1,Chloé,4.7,158,Shop,Clothing Store,,
43.2038947,5.5106835,Calanque de Port Pin,1,Chloé,4.7,4676,Beach / Swim,Natural Feature,,http://www.calanques-parcnational.fr/
43.2893769,5.3875085,La restanque,1,Chloé,4.6,279,Wine Bar,Bar,,
43.2848873,5.3599305,Lily,1,Chloé,4.5,116,Wine Bar,Bar,,https://cutt.ly/reserverunetable
43.2023618,5.498018999999999,Calanque d'En-vau,1,Chloé,4.7,1080,Beach / Swim,Natural Feature,,
43.309774,5.3923065,Aux Pieds Tanqués,1,Chloé,4.6,173,Wine Bar,Bar,,
43.30258,5.392383,Les Babines de Mars,1,Chloé,4.7,586,Dinner,Restaurant,"Yum, best to call and reserve",https://paa.ge/lesbabinesdemars/fr
43.3312105,5.2188667,Calanque De Grand Méjean,1,Chloé,4.8,674,Beach / Swim,Marina,,https://www.marseille-tourisme.com/decouvrez-marseille/calanques-plages-et-nature/les-calanques-de-marseille/quelles-calanques-decouvrir/les-calanques-de-la-cote-bleue/la-calanque-de-mejean/
43.2908333,5.3669444,La Ruche,1,Chloé,4.4,1150,Wine Bar,Bar,,https://www.laruchemarseille.fr/
43.2891577,5.3632849,T65,1,Chloé,4,342,Coffee / Lunch,Bakery,,https://www.instagram.com/t65boulangerie/
43.2095569,5.421875,Calanque de Sormiou,1,Chloé,4.5,1011,Beach / Swim,Natural Feature,,
43.2860428,5.382040099999999,Punch Boxing Studio Marseille,1,Chloé,4.9,20,Other,Gym,,https://punch-marseille.com/
43.2954022,5.3616725,Le Café du Fort,1,Chloé,4.3,422,Wine Bar,Bar,COFFEE,https://www.instagram.com/cafedufort.marseille/
43.2939089,5.3744916,Bobby,1,Chloé,4.2,16,Shop,Consignment shop,CLOTHES,https://bobby-boutiques.com/
43.2945737,5.3955825,double zero,1,Chloé,4.9,179,Wine Bar,Bar,"restaurant audiophile, vins naturels & vinyles; DINNER",https://bookings.zenchef.com/results?rid=373517
43.2376657,5.3615656,Le Cabanon de Paulette,1,Chloé,4,1466,Wine Bar,Bar,DINNER,https://www.instagram.com/lecabanondepaulette/
43.2890154,5.3788033,Cielo trattoria jogging,1,Chloé,4.5,164,Shop,Clothing Store,DRINKS,http://www.joggingjogging.com/
43.2979812,5.3709263,chez moe,1,Chloé,4.8,179,Coffee / Lunch,Cafe,COFFEE,http://chezmoe.fr/
43.28026759999999,5.351426699999999,Dropped pin near Plage de Maldormé / Anse de Maldormé,1,Riya,5,2,Other,Tourist Attraction,,
43.2816002,5.355082599999999,Théâtre Silvain,1,Riya,4.5,795,Culture,Performing arts theater,,http://www.culture-13.fr/annuaire/theatre-silvain.html
43.2992976,5.364701699999999,Cathédrale La Major,1,Riya,4.7,19866,Other,Church,,https://diocese-marseille.fr/paroisse/sanctuaire-sainte-marie-majeure-cathedrale-la-major/
43.2921702,5.3834715,LABC Sandwich Coffee,1,Riya,4.8,156,Dinner,Restaurant,,
43.2893514,5.3683054,Saint-Victor,1,Riya,,,Other,Neighborhood,,
43.2992631,5.3687469,Entre Terre & Mer,1,Riya,4.6,1301,Dinner,Restaurant,,https://entreterreetmermarseille.com/
43.2948055,5.3863582,Marché de la Plaine,1,Riya,4,1898,Shop,Market,,
43.2958107,5.3790985,Epicerie L'IDEAL,1,Riya,4.3,502,Shop,Grocery Or Supermarket,,http://www.epicerielideal.com/
43.2613455,5.3964892,Unité d'Habitation,1,Riya,4.5,2186,Other,Tourist Attraction,,http://www.marseille-citeradieuse.org/
43.2937261,5.3817243,Galerie d'art et design,1,Riya,4.8,16,Culture,Art Gallery,,https://latelierdesartsmarseille.fr/
43.2968039,5.3819483,Douceur Piquante,1,Tatiana,4.5,286,Dinner,Restaurant,,https://www.facebook.com/douceurpiquante13/
43.2954112,5.391344999999999,Chaleur Restaurant,1,Tatiana,4.7,106,Wine Bar,Bar,,
43.29936780000001,5.3858612,Grand Bar du Chapitre,1,Tatiana,3.9,139,Wine Bar,Bar,,
43.295483,5.385641,La Kaz Kréol,1,Tatiana,4.6,219,Dinner,Restaurant,Bokit sandwich is the best,https://website.dish.co/login
43.2967137,5.3810455,hammam eden,1,Tatiana,4.7,900,Other,Beauty Salon,Fave hammam in Marseille,http://www.hammam-marseille-eden.fr/
43.2936481,5.3845491,Si Par Azar,1,Tatiana,4.5,277,Dinner,Restaurant,For winter days,http://facebook.com/azarmarseille
43.2996734,5.3821097,Restaurant Zafer,1,Tatiana,4.8,616,Dinner,Restaurant,,
43.275017,5.304357,Frioul archipelago,1,Tatiana,4.6,549,Beach / Swim,Natural Feature,"Great day trip; boat from vieux port, book ahead in busy periods",
43.2952514,5.380146799999999,Hammam Rafik,1,Tatiana,4.6,241,Other,Beauty Salon,,https://1drv.ms/b/c/cc7c7533c720e902/IQDOadmWy5AQSovL26KxzUCiAU1nb06s3WAAHaMhSZH1-ik
43.3028025,5.389882699999999,123 Fripe,1,Tatiana,4.1,15,Shop,Clothing Store,Good charity shop,
43.3013889,5.3808333,Café l'Écomotive,1,Tatiana,4.3,1288,Coffee / Lunch,Cafe,,https://www.instagram.com/cafelecomotive/
43.29329509999999,5.391809299999999,Le Makeda,1,Tatiana,4.4,387,Culture,Concert hall,,http://lemakeda.com/
43.311218,5.3831364,L'Embobineuse,1,Tatiana,4.3,142,Culture,Performing arts theater,Fun small club,https://www.lembobineuse.biz/
43.30172899999999,5.392011999999999,Sing Or Die Karaoke,1,Tatiana,4.6,181,Wine Bar,Bar,Best karaoke in Marseille,https://sing-or-die-karaoke.eatbu.com/
43.292751,5.3834241,Restaurant Tabla,1,Tatiana,4.9,623,Dinner,Restaurant,,https://tablamarseille.fr/?utm_source=GBP
43.2945327,5.3855377,Le Magnolia,1,Tatiana,4.6,296,Coffee / Lunch,Cafe,,
43.2994499,5.386065599999999,Le Mounguy,1,Tatiana,4.6,203,Wine Bar,Bar,,https://www.facebook.com/lemounguy/
43.2943674,5.3830168,MAMS,1,Tatiana,4.9,384,Dinner,Restaurant,,
43.3002602,5.3865275,Bar O'Thierry,1,Tatiana,3.8,79,Wine Bar,Bar,,
43.2947156,5.3827035,LA MURISSERIE ASSOCIATION,1,Tatiana,4.6,63,Dinner,Restaurant,,https://lamurisserie.fr/
43.2992547,5.3844055,Robato,1,Tatiana,4.5,289,Dinner,Restaurant,,https://robato-ramen.fr/
43.2918809,5.3839587,La Merveilleuse,1,Tatiana,4.3,134,Wine Bar,Bar,,https://www.instagram.com/lamerveilleusebar
43.2952661,5.3832626,OLAB Photo,1,Tatiana,5,341,Other,Good film development spot,,https://www.olabphoto.com/
43.2960976,5.386921999999999,BAR TABAC M'Chached Driss,1,Tatiana,3.6,35,Wine Bar,Bar,,
43.28301270000001,5.350228,LOULOU MONSIEUR GLACE,1,Tatiana,4.4,250,Other,,,https://louloumonsieurglace.com/
43.2921063,5.385269099999999,Caterine,1,Tatiana,4.3,437,Dinner,Restaurant,,https://www.facebook.com/caterine.mrs/
43.2943746,5.3876326,L'Art Haché,1,Tatiana,3.8,109,Wine Bar,Bar,,
43.2991995,5.3651449,Terrain de Pétanque La Major,1,Tatiana,5,10,Other,Good for pétanque,,https://www.marseille.fr/sports-loisirs/equipements-sportifs/equipements-sportifs-en-libre-acces
43.2943345,5.358262799999999,Palais du Pharo,1,Tatiana,4.7,4180,Transport,Cute spot to watch boats,,https://palaisdupharo.marseille.fr/
43.2946371,5.3805517,RESSOURCERIE de NOAILLES,1,Tatiana,4.5,29,Other,,,
43.2320297,5.4005863,Sormiou,1,Tatiana,,,Other,Neighborhood,,
43.2937394,5.385078699999999,L'Eléphant Rose à Pois Blancs,1,Tatiana,4.6,901,Coffee / Lunch,Cafe,,
43.292587,5.3793815,Atelier 5,1,Tatiana,5,37,Shop,Jewelry Store,,
43.275017,5.304357,Le Frioul,1,Tatiana,4.6,549,Beach / Swim,Natural Feature,,
43.3102867,5.3871158,Le Couvent,1,Tatiana,4.6,450,Other,,,https://www.le-couvent.org/
43.2912608,5.4237592,Le Talus,1,Tatiana,4.8,105,Wine Bar,Bar,,https://www.letalus.com/
43.300832,5.3881077,Coeur de Chineur brocante friperie,1,Tatiana,5,140,Shop,Clothing Store,"Nice guy, cheap",https://www.instagram.com/coeurdechineur/
43.3007174,5.3839435,Nihao,1,Tatiana,4.8,428,Dinner,Restaurant,Korean chicken is fave,
43.2828173,5.3504219,La Vallée du Liban,1,Tatiana,4.3,383,Dinner,Restaurant,Good sandwiches,
43.3028527,5.3705561,C.I.R.V.A Glass and Plastic Arts,1,Tatiana,4.7,41,Culture,Art center,,http://www.cirva.fr/
43.295441,5.3858701,Au Petit Nice,1,Tatiana,4.3,1580,Wine Bar,Bar,,https://m.facebook.com/pages/Au-Petit-Nice/122411584503180
43.2941174,5.3868396,Le Traquenard,1,Tatiana,4.2,183,Wine Bar,Bar,,
43.2915848,5.371613099999999,Vertigo Bar,1,Georgie,4.6,278,Nightlife,Bar,Bar.,https://www.vertigomarseille.com/
43.2152867,5.3465699,Les Goudes,1,Cara,,,Beach / Swim,Neighborhood,Boat trip out — lovely beaches.,
43.2098019,5.527495699999999,Nudist Beach (Oscar's pin),1,Oscar,4.2,106,Beach / Swim,Tourist Attraction,Oscar's saved pin (naturist calanque beach).,
43.215134,5.53712,Cassis,1,Tom,,,Town / Area,Locality,Gorgeous town not too far away — worth a day trip.,
43.2960745,5.3739954,Vieux-Port (Old Port),1,Tom,,,Town / Area,Neighborhood,Always vibey — tourist hotspot but worth it.,
43.2933252,5.3759033,Opéra de Marseille,1,Tom,4.4,1895,Town / Area,,Rumba evening on the tiles outside — STUNNING.,http://opera.marseille.fr/
43.29420469999999,5.383522,Espace Julien,1,Cara,4.3,1162,Town / Area,Bar,Nice area with loads of bars around a square.,http://www.espace-julien.com/
43.2972618,5.3707199,Placette,1,Group list,4.6,629,Coffee / Lunch,Restaurant,Healthy lunch.,
43.2921617,5.3843662,Beans,1,Group list,4.8,499,Coffee / Lunch,Restaurant,Breakfast / brunch.,http://beansmarseille.com/
43.2834363,5.374679,Carlotta,1,Group list,4.3,904,Coffee / Lunch,Bar,Brunch.,http://carlottawith.com/
43.2991708,5.3690304,Chez Lucas,1,Group list,4.9,1002,Coffee / Lunch,Restaurant,Giant sandwiches.,https://www.instagram.com/chez_lucas_/
43.28292510000001,5.3503379,L'Eau à la Bouche,1,Cara,4.2,983,Coffee / Lunch,Restaurant,Grab a pizza and eat it by the sea.,http://www.pizzerialeaualabouche.fr/
43.2983358,5.3711071,Nguyen Hoang,1,Group list,4.5,642,Dinner,Bar,Traditional Vietnamese — sit outside.,https://www.facebook.com/NguyenHoangMarseille/
43.2151347,5.3454833,Chez Paul,1,Cara,4.5,1558,Dinner,Restaurant,"By the sea — bouillabaisse, buff location (spenny).",https://www.facebook.com/chezpaul.lesgoudes/
43.29401259999999,5.3753793,Marmot,1,Group list,4.8,46,Wine Bar,Bar,Wine bar — near the port & Ciel.,https://www.instagram.com/lemarmotbarprovencal?igsh=aWxwbjM0Y3N4MXZx
43.2453224,5.3740836,Bibi Marseille,1,Georgie,,,Nightlife,Night Club,Club.,
43.2902445,5.3726162,Bar Gaspard,1,Georgie,4.8,792,Nightlife,Bar,Bar.,https://www.bargaspard.com/
43.3001068,5.3685902,Le Spot de l'Été,1,Georgie,4.9,45,Nightlife,Bar,Bar.,https://www.instagram.com/taofe.cafe?igsh=NHZ3dHBjZ2YxcTIw
43.2958983,5.3704651,La Navette (RTM ferry),1,Group list,4.3,169,Transport,,Sea ferry around Marseille.,https://www.rtm.fr/ferry-boat
